[{"id":"osm-node-764235683","stageId":"padron-santiago","type":"cafe","name":"Milay","lat":42.874332,"lon":-8.5490064},{"id":"osm-node-766297584","stageId":"padron-santiago","type":"viewpoint","name":"Viewpoint","lat":42.8785698,"lon":-8.548677},{"id":"osm-node-951960446","stageId":"oporrino-redondela","type":"cafe","name":"Liceum","lat":42.1621649,"lon":-8.6215229},{"id":"osm-node-1090103704","stageId":"oporrino-redondela","type":"historic","name":"Casa Natal de Antonio Palacios","lat":42.1619244,"lon":-8.6212847},{"id":"osm-node-1105058970","stageId":"oporrino-redondela","type":"cafe","name":"Paso a Nivel","lat":42.162762,"lon":-8.6225103},{"id":"osm-node-1228131802","stageId":"oporrino-redondela","type":"cafe","name":"Café Zentral","lat":42.1627495,"lon":-8.6213441},{"id":"osm-node-1246881580","stageId":"padron-santiago","type":"cafe","name":"Cuyagua","lat":42.8735555,"lon":-8.5525238},{"id":"osm-node-1258258876","stageId":"oporrino-redondela","type":"cafe","name":"La Paix","lat":42.1616395,"lon":-8.6202111},{"id":"osm-node-1265045304","stageId":"padron-santiago","type":"cafe","name":"Montoto","lat":42.8743349,"lon":-8.550312},{"id":"osm-node-1274374508","stageId":"padron-santiago","type":"cafe","name":"Raíces Galegas","lat":42.8742291,"lon":-8.5515384},{"id":"osm-node-1276928785","stageId":"oporrino-redondela","type":"cafe","name":"El Rincón de Suga","lat":42.163776,"lon":-8.619169},{"id":"osm-node-1337283617","stageId":"oporrino-redondela","type":"cafe","name":"Origen","lat":42.16202,"lon":-8.620915},{"id":"osm-node-1381703909","stageId":"pontevedra-caldas","type":"historic","name":"Cruceiro das Cinco Rúas","lat":42.4335892,"lon":-8.6461119},{"id":"osm-node-1446848745","stageId":"padron-santiago","type":"cafe","name":"Nuevo Kampus","lat":42.8732826,"lon":-8.552966},{"id":"osm-node-1612854102","stageId":"redondela-pontevedra","type":"cafe","name":"MeuETeu","lat":42.4238665,"lon":-8.6358239},{"id":"osm-node-1612854113","stageId":"redondela-pontevedra","type":"cafe","name":"Tapería Dos Estaciones","lat":42.4221432,"lon":-8.6368499},{"id":"osm-node-1612854136","stageId":"redondela-pontevedra","type":"cafe","name":"Aterriza como puedas","lat":42.4232981,"lon":-8.6392785},{"id":"osm-node-1645677121","stageId":"padron-santiago","type":"cafe","name":"Latorta Boutique","lat":42.873398,"lon":-8.5516517},{"id":"osm-node-1645682953","stageId":"padron-santiago","type":"cafe","name":"Estudio 34","lat":42.8735071,"lon":-8.5502795},{"id":"osm-node-1770649826","stageId":"tui-oporrino","type":"viewpoint","name":"Viewpoint","lat":42.0485007,"lon":-8.639584},{"id":"osm-node-1770771487","stageId":"tui-oporrino","type":"viewpoint","name":"Viewpoint","lat":42.0494041,"lon":-8.643089},{"id":"osm-node-1771509310","stageId":"tui-oporrino","type":"historic","name":"Monumento ao cabalo salvaxe","lat":42.04937,"lon":-8.6432072},{"id":"osm-node-1775997272","stageId":"padron-santiago","type":"cafe","name":"Alborada de Veiga","lat":42.8716212,"lon":-8.5577028},{"id":"osm-node-1776573607","stageId":"tui-oporrino","type":"albergue","name":"Jacob's Hostel Tui","lat":42.0479421,"lon":-8.6437472},{"id":"osm-node-1976315115","stageId":"padron-santiago","type":"historic","name":"Manuel Ventura Figueroa","lat":42.8773678,"lon":-8.5511199},{"id":"osm-node-1976315122","stageId":"padron-santiago","type":"historic","name":"Monumento a Rosalía de Castro","lat":42.8775303,"lon":-8.5505043},{"id":"osm-node-2036910167","stageId":"pontevedra-caldas","type":"water","name":"Drinking fountain","lat":42.428224,"lon":-8.644352},{"id":"osm-node-2049721038","stageId":"padron-santiago","type":"cafe","name":"Raña","lat":42.8225583,"lon":-8.6106287},{"id":"osm-node-2211119333","stageId":"redondela-pontevedra","type":"water","name":"Drinking fountain","lat":42.3416707,"lon":-8.6075332},{"id":"osm-node-2298599835","stageId":"padron-santiago","type":"cafe","name":"Café-Bar Casa da Cultura","lat":42.8449699,"lon":-8.581176},{"id":"osm-node-2298628510","stageId":"padron-santiago","type":"cafe","name":"El Cafelito","lat":42.8465859,"lon":-8.5766138},{"id":"osm-node-2396008495","stageId":"caldas-padron","type":"albergue","name":"Albergue O Cruceiro","lat":42.6030004,"lon":-8.6454428,"notes":"Hours: Mar 06-Oct 31"},{"id":"osm-node-2465501322","stageId":"padron-santiago","type":"albergue","name":"Albergue Mundoalbergue","lat":42.8786375,"lon":-8.5476242,"notes":"Hours: 10:00-23:00"},{"id":"osm-node-2505042063","stageId":"padron-santiago","type":"water","name":"Drinking fountain","lat":42.8692539,"lon":-8.5554623},{"id":"osm-node-2675457193","stageId":"tui-oporrino","type":"cafe","name":"Bar Camino de Santiago","lat":42.1431822,"lon":-8.6227003},{"id":"osm-node-2675457205","stageId":"tui-oporrino","type":"cafe","name":"Café Bar Casiano","lat":42.1447303,"lon":-8.6219834},{"id":"osm-node-2683380472","stageId":"padron-santiago","type":"cafe","name":"Cuqui","lat":42.8723007,"lon":-8.5558811},{"id":"osm-node-2689140158","stageId":"oporrino-redondela","type":"historic","name":"Cruceiro do Santo Cristo da Agonía","lat":42.1626402,"lon":-8.620713},{"id":"osm-node-2691405825","stageId":"oporrino-redondela","type":"cafe","name":"O Alpendre","lat":42.2040294,"lon":-8.6056226,"notes":"Hours: Tu-Su 12:00-16:00, 20:00-23:00"},{"id":"osm-node-2710698841","stageId":"oporrino-redondela","type":"albergue","name":"Rincón del peregrino","lat":42.159173,"lon":-8.621726},{"id":"osm-node-2748253826","stageId":"padron-santiago","type":"water","name":"Fonte e Mural do Hotel Exe Peregrino","lat":42.8716344,"lon":-8.5560953},{"id":"osm-node-2751408778","stageId":"padron-santiago","type":"water","name":"Drinking fountain","lat":42.8739383,"lon":-8.549632},{"id":"osm-node-2764929203","stageId":"redondela-pontevedra","type":"water","name":"Drinking fountain","lat":42.4250627,"lon":-8.638972},{"id":"osm-node-2782845376","stageId":"pontevedra-caldas","type":"water","name":"Drinking fountain","lat":42.4365491,"lon":-8.6432884},{"id":"osm-node-2995236829","stageId":"oporrino-redondela","type":"cafe","name":"Alirón","lat":42.1519571,"lon":-8.6209295},{"id":"osm-node-2995236830","stageId":"oporrino-redondela","type":"historic","name":"Cruceiro das Angustias","lat":42.1658884,"lon":-8.6200145},{"id":"osm-node-2995236831","stageId":"oporrino-redondela","type":"water","name":"Fonte das Angustias","lat":42.1659881,"lon":-8.6201872},{"id":"osm-node-3062806037","stageId":"padron-santiago","type":"historic","name":"Cruceiro de Fondo de Vila","lat":42.7368393,"lon":-8.6607556},{"id":"osm-node-3062858684","stageId":"padron-santiago","type":"cafe","name":"Café Cultural Airiños","lat":42.7375627,"lon":-8.6609753},{"id":"osm-node-3063007675","stageId":"padron-santiago","type":"cafe","name":"Alfolí","lat":42.7387412,"lon":-8.6597605},{"id":"osm-node-3063160237","stageId":"padron-santiago","type":"historic","name":"Cruceiro (wayside cross)","lat":42.738869,"lon":-8.6598659},{"id":"osm-node-3063160259","stageId":"padron-santiago","type":"water","name":"Drinking fountain","lat":42.7387885,"lon":-8.6588487},{"id":"osm-node-3119607954","stageId":"padron-santiago","type":"historic","name":"Memorial","lat":42.8600711,"lon":-8.5769291},{"id":"osm-node-3429378309","stageId":"tui-oporrino","type":"historic","name":"Cruceiro (wayside cross)","lat":42.046936,"lon":-8.6461501},{"id":"osm-node-3430149697","stageId":"tui-oporrino","type":"historic","name":"Cruceiro (wayside cross)","lat":42.0470772,"lon":-8.6422732},{"id":"osm-node-3441028297","stageId":"tui-oporrino","type":"historic","name":"Cruceiro de San Bartolomeu","lat":42.0534602,"lon":-8.6395686},{"id":"osm-node-3448467811","stageId":"padron-santiago","type":"historic","name":"Pedro Pais Lapido","lat":42.8768775,"lon":-8.5503438},{"id":"osm-node-3449613895","stageId":"oporrino-redondela","type":"cafe","name":"Pinzas","lat":42.1561729,"lon":-8.6208365},{"id":"osm-node-3450554793","stageId":"padron-santiago","type":"cafe","name":"Cafetaría do COIE","lat":42.8741959,"lon":-8.5556889},{"id":"osm-node-3452213593","stageId":"tui-oporrino","type":"cafe","name":"KF Central","lat":42.0468945,"lon":-8.6442357},{"id":"osm-node-3452759664","stageId":"tui-oporrino","type":"historic","name":"Monumento en memoria dos represaliados do Baixo Miño","lat":42.0496348,"lon":-8.6389594},{"id":"osm-node-3512020664","stageId":"redondela-pontevedra","type":"historic","name":"Cruceiro de Vilavella","lat":42.2790521,"lon":-8.6102987},{"id":"osm-node-3573038368","stageId":"padron-santiago","type":"water","name":"Drinking fountain","lat":42.8735274,"lon":-8.5495592},{"id":"osm-node-3650895044","stageId":"padron-santiago","type":"water","name":"Drinking fountain","lat":42.8771368,"lon":-8.5468852},{"id":"osm-node-3664038783","stageId":"padron-santiago","type":"water","name":"Drinking fountain","lat":42.7840444,"lon":-8.6500479},{"id":"osm-node-3687807461","stageId":"padron-santiago","type":"water","name":"Drinking fountain","lat":42.8649543,"lon":-8.5603374},{"id":"osm-node-3687807462","stageId":"padron-santiago","type":"water","name":"Drinking fountain","lat":42.8648193,"lon":-8.5609839},{"id":"osm-node-3689115266","stageId":"pontevedra-caldas","type":"cafe","name":"Borona Café","lat":42.4323526,"lon":-8.6452348},{"id":"osm-node-3689115267","stageId":"pontevedra-caldas","type":"cafe","name":"Lola y Lía","lat":42.4318136,"lon":-8.6451637},{"id":"osm-node-3689115269","stageId":"pontevedra-caldas","type":"cafe","name":"Alejo's","lat":42.4319974,"lon":-8.6443894},{"id":"osm-node-3719475305","stageId":"padron-santiago","type":"water","name":"Drinking fountain","lat":42.8770227,"lon":-8.5490625},{"id":"osm-node-3719475313","stageId":"padron-santiago","type":"historic","name":"Memorial","lat":42.8774927,"lon":-8.5498806},{"id":"osm-node-3719475314","stageId":"padron-santiago","type":"water","name":"Drinking fountain","lat":42.8775245,"lon":-8.5500506},{"id":"osm-node-3719475316","stageId":"padron-santiago","type":"water","name":"Drinking fountain","lat":42.8776387,"lon":-8.5512331},{"id":"osm-node-3726031076","stageId":"pontevedra-caldas","type":"water","name":"Fonte de Curros Enríquez","lat":42.4317326,"lon":-8.6450395},{"id":"osm-node-3726031077","stageId":"pontevedra-caldas","type":"water","name":"Drinking fountain","lat":42.4328056,"lon":-8.6452313},{"id":"osm-node-3726040372","stageId":"pontevedra-caldas","type":"water","name":"Drinking fountain","lat":42.4307928,"lon":-8.6433906},{"id":"osm-node-3726045348","stageId":"pontevedra-caldas","type":"water","name":"Fontana da Verdura","lat":42.432907,"lon":-8.6437415},{"id":"osm-node-3733150925","stageId":"tui-oporrino","type":"cafe","name":"Boby","lat":42.0476671,"lon":-8.6440917},{"id":"osm-node-3733467259","stageId":"pontevedra-caldas","type":"historic","name":"Cruceiro de Santa María","lat":42.4335593,"lon":-8.6475823},{"id":"osm-node-3733467260","stageId":"pontevedra-caldas","type":"historic","name":"Cruceiro (wayside cross)","lat":42.4341781,"lon":-8.6455015},{"id":"osm-node-3734358188","stageId":"pontevedra-caldas","type":"historic","name":"Cruceiro (wayside cross)","lat":42.4352036,"lon":-8.6467399},{"id":"osm-node-3738401422","stageId":"padron-santiago","type":"water","name":"Drinking fountain","lat":42.8681503,"lon":-8.5566713},{"id":"osm-node-3738439071","stageId":"padron-santiago","type":"historic","name":"Cruceiro (wayside cross)","lat":42.8739806,"lon":-8.5495225},{"id":"osm-node-3759715213","stageId":"padron-santiago","type":"water","name":"Drinking fountain","lat":42.8667969,"lon":-8.5606117},{"id":"osm-node-3759715258","stageId":"padron-santiago","type":"water","name":"Drinking fountain","lat":42.871559,"lon":-8.5601204},{"id":"osm-node-3782965689","stageId":"padron-santiago","type":"historic","name":"Homenaxe ao Arcebispo Don Diego Xelmírez","lat":42.860681,"lon":-8.5658468},{"id":"osm-node-3790535375","stageId":"padron-santiago","type":"historic","name":"Cruceiro (wayside cross)","lat":42.7607724,"lon":-8.6512228},{"id":"osm-node-3790572018","stageId":"padron-santiago","type":"water","name":"Drinking fountain","lat":42.8714829,"lon":-8.5548207},{"id":"osm-node-3802411757","stageId":"oporrino-redondela","type":"cafe","name":"Urban","lat":42.1648412,"lon":-8.6207564},{"id":"osm-node-3812927559","stageId":"tui-oporrino","type":"historic","name":"Cruceiro de Centeáns","lat":42.1295549,"lon":-8.6426552},{"id":"osm-node-3812927760","stageId":"tui-oporrino","type":"historic","name":"Cruceiro de San Campio","lat":42.1327767,"lon":-8.6405784},{"id":"osm-node-3813006337","stageId":"tui-oporrino","type":"historic","name":"Homenaxe a Luís Riego","lat":42.1444444,"lon":-8.6241194},{"id":"osm-node-3860875147","stageId":"redondela-pontevedra","type":"cafe","name":"O Café da Vila","lat":42.2826727,"lon":-8.6089266},{"id":"osm-node-3861080991","stageId":"redondela-pontevedra","type":"cafe","name":"Disco Tasca","lat":42.281285,"lon":-8.6091435},{"id":"osm-node-3949345085","stageId":"padron-santiago","type":"water","name":"Drinking fountain","lat":42.7453329,"lon":-8.6557032},{"id":"osm-node-4002513754","stageId":"redondela-pontevedra","type":"cafe","name":"Sirius","lat":42.4253328,"lon":-8.6384793},{"id":"osm-node-4028040438","stageId":"caldas-padron","type":"water","name":"Drinking fountain","lat":42.6026452,"lon":-8.6453612},{"id":"osm-node-4038285330","stageId":"pontevedra-caldas","type":"cafe","name":"Supremo","lat":42.4257105,"lon":-8.6421746},{"id":"osm-node-4038863466","stageId":"padron-santiago","type":"water","name":"Fonte da Carreira do Conde","lat":42.8767853,"lon":-8.5463273},{"id":"osm-node-4079299048","stageId":"oporrino-redondela","type":"albergue","name":"Albergue de Peregrinos Santa Ana de Veigadaña","lat":42.1840466,"lon":-8.6193785},{"id":"osm-node-4087203696","stageId":"pontevedra-caldas","type":"water","name":"Drinking fountain","lat":42.4309413,"lon":-8.6404659},{"id":"osm-node-4087205232","stageId":"pontevedra-caldas","type":"water","name":"Drinking fountain","lat":42.4281927,"lon":-8.6438294},{"id":"osm-node-4210259358","stageId":"padron-santiago","type":"cafe","name":"Rúas","lat":42.7339423,"lon":-8.6605067},{"id":"osm-node-4216544310","stageId":"padron-santiago","type":"cafe","name":"Amigo","lat":42.8730719,"lon":-8.5519367},{"id":"osm-node-4224663834","stageId":"padron-santiago","type":"cafe","name":"Pan Garcos","lat":42.8724088,"lon":-8.5570287,"notes":"Hours: Mo-Fr 07:30-19:00; Sa 09:00-15:00"},{"id":"osm-node-4226501042","stageId":"padron-santiago","type":"cafe","name":"Cafe Iacobus","lat":42.8769219,"lon":-8.5455911},{"id":"osm-node-4234370391","stageId":"padron-santiago","type":"albergue","name":"Rossol","lat":42.7393302,"lon":-8.6610403},{"id":"osm-node-4234370789","stageId":"padron-santiago","type":"cafe","name":"Ruta Xacobea","lat":42.7385825,"lon":-8.6613897},{"id":"osm-node-4235879492","stageId":"redondela-pontevedra","type":"albergue","name":"Aloxa albergue","lat":42.4226841,"lon":-8.636842},{"id":"osm-node-4258372355","stageId":"pontevedra-caldas","type":"cafe","name":"Café Museo da Historia","lat":42.4348527,"lon":-8.6452887},{"id":"osm-node-4266760619","stageId":"oporrino-redondela","type":"albergue","name":"Bar Corisco","lat":42.2541264,"lon":-8.609518,"notes":"Hours: Mo-Sa 07:00-22:00"},{"id":"osm-node-4294253289","stageId":"redondela-pontevedra","type":"cafe","name":"Cafeteria \"Pili\"","lat":42.3342742,"lon":-8.6068426,"notes":"Hours: Mo-Su 08:00-23:00"},{"id":"osm-node-4430683492","stageId":"padron-santiago","type":"cafe","name":"Secreto","lat":42.8779394,"lon":-8.5472824},{"id":"osm-node-4450675690","stageId":"redondela-pontevedra","type":"cafe","name":"Nuevo Jumboli","lat":42.306885,"lon":-8.6053437},{"id":"osm-node-4498541290","stageId":"caldas-padron","type":"cafe","name":"Café Bar Taíno","lat":42.6043745,"lon":-8.6481865},{"id":"osm-node-4545116259","stageId":"padron-santiago","type":"cafe","name":"Jazba","lat":42.8738511,"lon":-8.5488429},{"id":"osm-node-4598490055","stageId":"oporrino-redondela","type":"historic","name":"Cruceiro (wayside cross)","lat":42.1623757,"lon":-8.6246971},{"id":"osm-node-4727683019","stageId":"oporrino-redondela","type":"cafe","name":"Estación","lat":42.1642839,"lon":-8.6219867},{"id":"osm-node-4729823152","stageId":"oporrino-redondela","type":"cafe","name":"Cafetería El Parque","lat":42.1623982,"lon":-8.6206928},{"id":"osm-node-4766663624","stageId":"pontevedra-caldas","type":"cafe","name":"A Pousada do Peregrino","lat":42.5046587,"lon":-8.6498442},{"id":"osm-node-4771790794","stageId":"padron-santiago","type":"water","name":"Drinking fountain","lat":42.8705241,"lon":-8.5605433},{"id":"osm-node-4786691996","stageId":"oporrino-redondela","type":"albergue","name":"Alojamiento Camino Portugués","lat":42.162622,"lon":-8.625666},{"id":"osm-node-4843655121","stageId":"caldas-padron","type":"cafe","name":"Esperon","lat":42.6490785,"lon":-8.6455195,"notes":"Hours: Mo-Su 07:00-14:00"},{"id":"osm-node-4869933521","stageId":"caldas-padron","type":"cafe","name":"Cafetería Termas","lat":42.6032848,"lon":-8.6427022},{"id":"osm-node-4876439392","stageId":"padron-santiago","type":"cafe","name":"Café Bar Orpheus","lat":42.8708191,"lon":-8.5522961,"notes":"Hours: Su closed"},{"id":"osm-node-4920333891","stageId":"padron-santiago","type":"water","name":"Drinking fountain","lat":42.8698766,"lon":-8.5614339},{"id":"osm-node-5021937923","stageId":"pontevedra-caldas","type":"cafe","name":"El Patio","lat":42.4286138,"lon":-8.641374},{"id":"osm-node-5041640923","stageId":"redondela-pontevedra","type":"albergue","name":"Albergue Santiago de Vilavella","lat":42.2796734,"lon":-8.6104426},{"id":"osm-node-5041640926","stageId":"pontevedra-caldas","type":"cafe","name":"Cafe Bar Camino del Borro","lat":42.554555,"lon":-8.6375855},{"id":"osm-node-5041664924","stageId":"redondela-pontevedra","type":"cafe","name":"Casa Fermín","lat":42.3928606,"lon":-8.6281492,"notes":"Hours: Mo-Sa 08:30-21:30; Su 09:30-14:30"},{"id":"osm-node-5041666121","stageId":"oporrino-redondela","type":"cafe","name":"Bar-Casa Veiga","lat":42.2283065,"lon":-8.6120797},{"id":"osm-node-5041666123","stageId":"pontevedra-caldas","type":"cafe","name":"Mesón don pulpo","lat":42.5050288,"lon":-8.6493029},{"id":"osm-node-5041666124","stageId":"caldas-padron","type":"cafe","name":"Bar Pardal","lat":42.6672351,"lon":-8.6346048},{"id":"osm-node-5083240727","stageId":"pontevedra-caldas","type":"cafe","name":"Americano","lat":42.4295246,"lon":-8.6456369},{"id":"osm-node-5114865523","stageId":"pontevedra-caldas","type":"cafe","name":"A Eira","lat":42.5248011,"lon":-8.6458736},{"id":"osm-node-5142749515","stageId":"caldas-padron","type":"water","name":"Drinking fountain","lat":42.6947302,"lon":-8.6383731},{"id":"osm-node-5142749516","stageId":"pontevedra-caldas","type":"water","name":"Drinking fountain","lat":42.5882064,"lon":-8.6453973},{"id":"osm-node-5142767175","stageId":"padron-santiago","type":"water","name":"Drinking fountain","lat":42.7392747,"lon":-8.6613919},{"id":"osm-node-5142767746","stageId":"caldas-padron","type":"water","name":"Drinking fountain","lat":42.7023277,"lon":-8.6420137},{"id":"osm-node-5142767953","stageId":"caldas-padron","type":"water","name":"Drinking fountain","lat":42.7073542,"lon":-8.6475398},{"id":"osm-node-5142785090","stageId":"pontevedra-caldas","type":"water","name":"Drinking fountain","lat":42.4615579,"lon":-8.6441251},{"id":"osm-node-5142785134","stageId":"pontevedra-caldas","type":"water","name":"Drinking fountain","lat":42.5059961,"lon":-8.6490565},{"id":"osm-node-5142798528","stageId":"pontevedra-caldas","type":"water","name":"Drinking fountain","lat":42.4517543,"lon":-8.6415673},{"id":"osm-node-5142916505","stageId":"redondela-pontevedra","type":"water","name":"Drinking fountain","lat":42.3112088,"lon":-8.6044772},{"id":"osm-node-5142919160","stageId":"redondela-pontevedra","type":"water","name":"Drinking fountain","lat":42.3789085,"lon":-8.6278705},{"id":"osm-node-5142919939","stageId":"redondela-pontevedra","type":"water","name":"Drinking fountain","lat":42.375204,"lon":-8.6258673},{"id":"osm-node-5142919956","stageId":"tui-oporrino","type":"water","name":"Drinking fountain","lat":42.0955393,"lon":-8.6383969},{"id":"osm-node-5142919958","stageId":"tui-oporrino","type":"water","name":"Drinking fountain","lat":42.056633,"lon":-8.6349169},{"id":"osm-node-5142920792","stageId":"redondela-pontevedra","type":"water","name":"Fonte do Picho","lat":42.2994538,"lon":-8.6096561},{"id":"osm-node-5142920793","stageId":"oporrino-redondela","type":"water","name":"Drinking fountain","lat":42.2283438,"lon":-8.6099},{"id":"osm-node-5177897422","stageId":"pontevedra-caldas","type":"cafe","name":"Café Mocay","lat":42.4291526,"lon":-8.6426048},{"id":"osm-node-5268312222","stageId":"caldas-padron","type":"cafe","name":"Bar el Cruce","lat":42.6530535,"lon":-8.6423937},{"id":"osm-node-5268344121","stageId":"caldas-padron","type":"cafe","name":"Cafe bar Casa Fariña","lat":42.6535808,"lon":-8.6420264},{"id":"osm-node-5268344122","stageId":"caldas-padron","type":"cafe","name":"Cafe bar Los Camioneros","lat":42.6759813,"lon":-8.6390654,"notes":"Hours: Mo-Sa 05:00-18:00"},{"id":"osm-node-5268344321","stageId":"caldas-padron","type":"cafe","name":"Bar Touceda","lat":42.6762536,"lon":-8.6395575},{"id":"osm-node-5363859046","stageId":"padron-santiago","type":"water","name":"Fonte da Espiñeira","lat":42.8711322,"lon":-8.55723},{"id":"osm-node-5374723521","stageId":"pontevedra-caldas","type":"albergue","name":"Albergue de Peregrinos A Portela","lat":42.5135108,"lon":-8.6472859,"notes":"Hours: Mo-Su 15:00-22:00"},{"id":"osm-node-5375541164","stageId":"pontevedra-caldas","type":"cafe","name":"A Devesa","lat":42.4315347,"lon":-8.646835},{"id":"osm-node-5375541165","stageId":"pontevedra-caldas","type":"cafe","name":"Acuña","lat":42.4316612,"lon":-8.6463336},{"id":"osm-node-5375541175","stageId":"pontevedra-caldas","type":"cafe","name":"A devesa","lat":42.4290831,"lon":-8.6413645},{"id":"osm-node-5375541176","stageId":"pontevedra-caldas","type":"cafe","name":"Acuna","lat":42.4282204,"lon":-8.6387807},{"id":"osm-node-5438063167","stageId":"redondela-pontevedra","type":"water","name":"Fonte da Alameda","lat":42.285113,"lon":-8.6087824},{"id":"osm-node-5448473983","stageId":"redondela-pontevedra","type":"cafe","name":"Café-Bar Paraíso","lat":42.2841322,"lon":-8.6065889},{"id":"osm-node-5457243209","stageId":"redondela-pontevedra","type":"water","name":"Drinking fountain","lat":42.2830917,"lon":-8.6094942},{"id":"osm-node-5463423083","stageId":"padron-santiago","type":"historic","name":"Rosalía de Castro","lat":42.8735765,"lon":-8.552246},{"id":"osm-node-5463423105","stageId":"padron-santiago","type":"water","name":"Drinking fountain","lat":42.8736795,"lon":-8.5519244},{"id":"osm-node-5463925637","stageId":"padron-santiago","type":"water","name":"Drinking fountain","lat":42.8780796,"lon":-8.5483084},{"id":"osm-node-5463925639","stageId":"padron-santiago","type":"viewpoint","name":"Viewpoint","lat":42.877853,"lon":-8.5478204},{"id":"osm-node-5463925641","stageId":"padron-santiago","type":"water","name":"Drinking fountain","lat":42.877459,"lon":-8.5476125},{"id":"osm-node-5463937504","stageId":"padron-santiago","type":"historic","name":"Casto Méndez Núñez","lat":42.8767404,"lon":-8.5474472},{"id":"osm-node-5463937506","stageId":"padron-santiago","type":"historic","name":"Ricardo Carvalho Calero","lat":42.8766968,"lon":-8.5468154},{"id":"osm-node-5463937507","stageId":"padron-santiago","type":"water","name":"Fonte do Campo da Rapa da Folla","lat":42.8758898,"lon":-8.5487728},{"id":"osm-node-5556609223","stageId":"pontevedra-caldas","type":"cafe","name":"Carallo 29","lat":42.4330248,"lon":-8.6442073},{"id":"osm-node-5562014573","stageId":"pontevedra-caldas","type":"cafe","name":"Desigual","lat":42.428675,"lon":-8.6396288},{"id":"osm-node-5575817258","stageId":"tui-oporrino","type":"water","name":"Drinking fountain","lat":42.1449308,"lon":-8.6222514},{"id":"osm-node-5609163425","stageId":"oporrino-redondela","type":"cafe","name":"Café do Pazo","lat":42.2040437,"lon":-8.6061864},{"id":"osm-node-5663163809","stageId":"oporrino-redondela","type":"albergue","name":"Albergue Senda Sur","lat":42.161809,"lon":-8.622961},{"id":"osm-node-5759398221","stageId":"padron-santiago","type":"albergue","name":"Albergue O Pedrón","lat":42.7326643,"lon":-8.6607743},{"id":"osm-node-5767733593","stageId":"redondela-pontevedra","type":"cafe","name":"Café Bar La Catedral","lat":42.4210852,"lon":-8.6390293},{"id":"osm-node-5767811688","stageId":"pontevedra-caldas","type":"cafe","name":"Boaviña Enoteca","lat":42.4333994,"lon":-8.6458308},{"id":"osm-node-5827272485","stageId":"tui-oporrino","type":"water","name":"Drinking fountain","lat":42.0490963,"lon":-8.643403},{"id":"osm-node-5894812585","stageId":"pontevedra-caldas","type":"albergue","name":"Albergue municipal","lat":42.56315,"lon":-8.6446506},{"id":"osm-node-5894822985","stageId":"pontevedra-caldas","type":"albergue","name":"Albergue Vintecatro","lat":42.5892516,"lon":-8.6456795},{"id":"osm-node-5916543156","stageId":"oporrino-redondela","type":"historic","name":"Cruz de Serodio","lat":42.1971205,"lon":-8.6094854},{"id":"osm-node-5922382242","stageId":"tui-oporrino","type":"cafe","name":"La Guía","lat":42.1496284,"lon":-8.6222147},{"id":"osm-node-5924528407","stageId":"padron-santiago","type":"water","name":"Drinking fountain","lat":42.8240325,"lon":-8.6111628},{"id":"osm-node-5927189721","stageId":"tui-oporrino","type":"albergue","name":"Villa San Clemente","lat":42.051328,"lon":-8.639681,"notes":"Hours: 12:00-14:00,16:30-21:00"},{"id":"osm-node-5931086387","stageId":"redondela-pontevedra","type":"water","name":"Drinking fountain","lat":42.2809636,"lon":-8.6095005},{"id":"osm-node-5931434772","stageId":"redondela-pontevedra","type":"albergue","name":"Lameiriñas","lat":42.3368434,"lon":-8.6065459},{"id":"osm-node-5976416291","stageId":"pontevedra-caldas","type":"cafe","name":"Cafeteria Rúas","lat":42.4328441,"lon":-8.6435105},{"id":"osm-node-5981546485","stageId":"redondela-pontevedra","type":"albergue","name":"Albergue Camino de Santiago O Lar de Pepa","lat":42.3375696,"lon":-8.606806},{"id":"osm-node-6000018686","stageId":"tui-oporrino","type":"cafe","name":"Ponte das Febres","lat":42.0950469,"lon":-8.6383329,"notes":"Hours: Mo-Su 08:00-22:00"},{"id":"osm-node-6001934385","stageId":"redondela-pontevedra","type":"albergue","name":"Albergue A Conserveira","lat":42.2802372,"lon":-8.6105469},{"id":"osm-node-6126075470","stageId":"padron-santiago","type":"cafe","name":"Jocar","lat":42.8753685,"lon":-8.5485525},{"id":"osm-node-6172520250","stageId":"caldas-padron","type":"albergue","name":"Albergue Timonel","lat":42.6022778,"lon":-8.6420576},{"id":"osm-node-6178719408","stageId":"padron-santiago","type":"cafe","name":"Candem","lat":42.8455061,"lon":-8.5770272},{"id":"osm-node-6201429185","stageId":"redondela-pontevedra","type":"albergue","name":"Albergue O Recuncho do Peregrino","lat":42.3252969,"lon":-8.6085771},{"id":"osm-node-6201443285","stageId":"padron-santiago","type":"albergue","name":"Albergue Camiño do Sar","lat":42.7315669,"lon":-8.6608461},{"id":"osm-node-6362543932","stageId":"padron-santiago","type":"cafe","name":"Jisma","lat":42.8474375,"lon":-8.5760507,"notes":"Hours: Mo-Su 07:00-03:00"},{"id":"osm-node-6390871098","stageId":"padron-santiago","type":"cafe","name":"Cafetería Camiño Portugués","lat":42.7534115,"lon":-8.6533688},{"id":"osm-node-6436548170","stageId":"caldas-padron","type":"cafe","name":"Caprichos","lat":42.6039557,"lon":-8.642158,"notes":"Hours: Tu-Su 06:45-21:30"},{"id":"osm-node-6441000316","stageId":"padron-santiago","type":"water","name":"Drinking fountain","lat":42.8645454,"lon":-8.566021},{"id":"osm-node-6477536902","stageId":"pontevedra-caldas","type":"cafe","name":"Balea","lat":42.4331666,"lon":-8.640793},{"id":"osm-node-6510998953","stageId":"padron-santiago","type":"cafe","name":"1ª Estación","lat":42.8459913,"lon":-8.5766793},{"id":"osm-node-6551375226","stageId":"padron-santiago","type":"albergue","name":"Albergue Do Milladoiro","lat":42.8483616,"lon":-8.5830016},{"id":"osm-node-6568200057","stageId":"tui-oporrino","type":"albergue","name":"Ideas Peregrinas","lat":42.046758,"lon":-8.644572},{"id":"osm-node-6573239108","stageId":"oporrino-redondela","type":"albergue","name":"Albergue Camino a Santiago","lat":42.162921,"lon":-8.621191},{"id":"osm-node-6763614745","stageId":"padron-santiago","type":"water","name":"Drinking fountain","lat":42.8688285,"lon":-8.5565536},{"id":"osm-node-6771886751","stageId":"padron-santiago","type":"cafe","name":"La Trastienda del 7","lat":42.8469992,"lon":-8.5790693},{"id":"osm-node-6925181948","stageId":"padron-santiago","type":"albergue","name":"Albergue Corredoiras","lat":42.7400387,"lon":-8.6606582},{"id":"osm-node-7009239785","stageId":"pontevedra-caldas","type":"albergue","name":"Albergue Nacama","lat":42.426585,"lon":-8.638986},{"id":"osm-node-7231369960","stageId":"padron-santiago","type":"cafe","name":"小食屋 Snack Bar","lat":42.8725475,"lon":-8.5507086},{"id":"osm-node-7416447292","stageId":"oporrino-redondela","type":"historic","name":"Cruceiro do Santísimo Cristo da Victoria","lat":42.2097459,"lon":-8.6091683},{"id":"osm-node-7487392272","stageId":"pontevedra-caldas","type":"historic","name":"Cruceiro (wayside cross)","lat":42.4340187,"lon":-8.6475534},{"id":"osm-node-7724195620","stageId":"redondela-pontevedra","type":"cafe","name":"O cruceiro","lat":42.2835156,"lon":-8.6085368,"notes":"Hours: Mo-Su 07:00-23:00"},{"id":"osm-node-7960369176","stageId":"pontevedra-caldas","type":"cafe","name":"Lola Food&Drink","lat":42.4279596,"lon":-8.6403814},{"id":"osm-node-7972759866","stageId":"padron-santiago","type":"water","name":"Drinking fountain","lat":42.7360104,"lon":-8.6605096},{"id":"osm-node-8085422743","stageId":"pontevedra-caldas","type":"cafe","name":"Silathe","lat":42.4299064,"lon":-8.6394218},{"id":"osm-node-8420920480","stageId":"padron-santiago","type":"cafe","name":"Entreportas","lat":42.8427383,"lon":-8.579933},{"id":"osm-node-8549116718","stageId":"oporrino-redondela","type":"historic","name":"Cruceiro (wayside cross)","lat":42.188228,"lon":-8.6111521},{"id":"osm-node-8549116720","stageId":"oporrino-redondela","type":"water","name":"Fonte da rúa","lat":42.204303,"lon":-8.6049134},{"id":"osm-node-9057252198","stageId":"pontevedra-caldas","type":"cafe","name":"Cafeteria Espacio 6","lat":42.4332822,"lon":-8.6416094},{"id":"osm-node-9099172500","stageId":"pontevedra-caldas","type":"cafe","name":"Forum","lat":42.4341033,"lon":-8.6447942},{"id":"osm-node-9439023153","stageId":"redondela-pontevedra","type":"cafe","name":"Cafetería Portal do Ribeiro","lat":42.3416532,"lon":-8.6070744},{"id":"osm-node-9503444579","stageId":"pontevedra-caldas","type":"albergue","name":"Acola Rooms","lat":42.4326456,"lon":-8.6489501},{"id":"osm-node-9558587400","stageId":"padron-santiago","type":"water","name":"Drinking fountain","lat":42.8683017,"lon":-8.5625544},{"id":"osm-node-9560562497","stageId":"padron-santiago","type":"water","name":"Drinking fountain","lat":42.864357,"lon":-8.5648031},{"id":"osm-node-9560614375","stageId":"padron-santiago","type":"water","name":"Drinking fountain","lat":42.8652544,"lon":-8.5640004},{"id":"osm-node-9560614388","stageId":"padron-santiago","type":"water","name":"Fonte da Carballa","lat":42.8660598,"lon":-8.5629127},{"id":"osm-node-9566175268","stageId":"padron-santiago","type":"water","name":"Drinking fountain","lat":42.8654978,"lon":-8.5606025},{"id":"osm-node-9608441655","stageId":"redondela-pontevedra","type":"cafe","name":"A Filla do Mar","lat":42.3320189,"lon":-8.6070572},{"id":"osm-node-9613553773","stageId":"padron-santiago","type":"historic","name":"Memorial","lat":42.8775818,"lon":-8.5516647},{"id":"osm-node-9615044897","stageId":"oporrino-redondela","type":"water","name":"Drinking fountain","lat":42.207421,"lon":-8.6073891},{"id":"osm-node-9660223688","stageId":"caldas-padron","type":"water","name":"Drinking fountain","lat":42.695837,"lon":-8.6382009},{"id":"osm-node-9660223696","stageId":"padron-santiago","type":"water","name":"Drinking fountain","lat":42.7773931,"lon":-8.6539412},{"id":"osm-node-9749956342","stageId":"pontevedra-caldas","type":"historic","name":"Alexandre Bóveda Iglesias","lat":42.4319989,"lon":-8.6449331},{"id":"osm-node-9754114417","stageId":"pontevedra-caldas","type":"historic","name":"Estatua de Valle-Inclán","lat":42.4329682,"lon":-8.6443908},{"id":"osm-node-9759747918","stageId":"pontevedra-caldas","type":"cafe","name":"La Audiencia","lat":42.4310973,"lon":-8.6444778},{"id":"osm-node-9761991517","stageId":"pontevedra-caldas","type":"cafe","name":"Oasis","lat":42.5538684,"lon":-8.6389101},{"id":"osm-node-9761991617","stageId":"caldas-padron","type":"albergue","name":"Albergue Agarimo","lat":42.6053259,"lon":-8.6429718},{"id":"osm-node-9839981717","stageId":"pontevedra-caldas","type":"albergue","name":"Acolá Hostel","lat":42.4340337,"lon":-8.6481655},{"id":"osm-node-9840086317","stageId":"caldas-padron","type":"albergue","name":"Albergue a Queimada","lat":42.601595,"lon":-8.6424418},{"id":"osm-node-9850835556","stageId":"pontevedra-caldas","type":"water","name":"Drinking fountain","lat":42.5717257,"lon":-8.6429719},{"id":"osm-node-9850975517","stageId":"pontevedra-caldas","type":"water","name":"Drinking fountain","lat":42.5893992,"lon":-8.645596},{"id":"osm-node-9929439098","stageId":"caldas-padron","type":"historic","name":"Cruceiro (wayside cross)","lat":42.6492162,"lon":-8.6450937},{"id":"osm-node-9931628845","stageId":"caldas-padron","type":"historic","name":"Cruceiro de San Lázaro","lat":42.7250472,"lon":-8.6504802},{"id":"osm-node-9932521164","stageId":"padron-santiago","type":"historic","name":"Cruceiro de Rúa de Francos","lat":42.8146232,"lon":-8.6201403},{"id":"osm-node-9934535717","stageId":"redondela-pontevedra","type":"albergue","name":"Albergue Casa Calvar","lat":42.3330226,"lon":-8.6074174},{"id":"osm-node-9977009717","stageId":"tui-oporrino","type":"historic","name":"Monument","lat":42.0563695,"lon":-8.6348804},{"id":"osm-node-10010810893","stageId":"padron-santiago","type":"cafe","name":"O Aperitivo e Sagrado","lat":42.7368644,"lon":-8.6612209},{"id":"osm-node-10015822917","stageId":"redondela-pontevedra","type":"cafe","name":"La Creación","lat":42.3412932,"lon":-8.609515,"notes":"Hours: Mo-Su 09:00-01:00"},{"id":"osm-node-10020579119","stageId":"caldas-padron","type":"water","name":"Drinking fountain","lat":42.7112955,"lon":-8.6470302},{"id":"osm-node-10020597700","stageId":"caldas-padron","type":"water","name":"Drinking fountain","lat":42.7197273,"lon":-8.6492145},{"id":"osm-node-10020695264","stageId":"caldas-padron","type":"water","name":"Drinking fountain","lat":42.7241016,"lon":-8.6506035},{"id":"osm-node-10020769058","stageId":"caldas-padron","type":"water","name":"Drinking fountain","lat":42.7218387,"lon":-8.6500272},{"id":"osm-node-10025622522","stageId":"oporrino-redondela","type":"water","name":"Drinking fountain","lat":42.2037112,"lon":-8.6057188},{"id":"osm-node-10025631130","stageId":"oporrino-redondela","type":"water","name":"Drinking fountain","lat":42.204339,"lon":-8.6063088},{"id":"osm-node-10026146711","stageId":"padron-santiago","type":"cafe","name":"Cafetería Río Sar","lat":42.7436885,"lon":-8.6576505},{"id":"osm-node-10027755020","stageId":"padron-santiago","type":"albergue","name":"Albergue D'Camino","lat":42.7391343,"lon":-8.662793},{"id":"osm-node-10027755021","stageId":"padron-santiago","type":"albergue","name":"Albergue Río Sar","lat":42.7436051,"lon":-8.6578453},{"id":"osm-node-10027755118","stageId":"padron-santiago","type":"cafe","name":"Café Bar Loncho","lat":42.8222136,"lon":-8.6112358},{"id":"osm-node-10027755417","stageId":"padron-santiago","type":"albergue","name":"Albergue Murgadán","lat":42.7397393,"lon":-8.6609846,"notes":"Hours: Mo-Su 13:00-20:00"},{"id":"osm-node-10028829617","stageId":"padron-santiago","type":"albergue","name":"Casa Aldea da Pedreira","lat":42.8270811,"lon":-8.6106511},{"id":"osm-node-10087258563","stageId":"redondela-pontevedra","type":"cafe","name":"Don Vinarius","lat":42.2792627,"lon":-8.6103062},{"id":"osm-node-10155144988","stageId":"redondela-pontevedra","type":"water","name":"Drinking fountain","lat":42.3304033,"lon":-8.6031129},{"id":"osm-node-10155159909","stageId":"redondela-pontevedra","type":"water","name":"Fonte de Pedrouzo","lat":42.3915397,"lon":-8.6270645},{"id":"osm-node-10280887153","stageId":"padron-santiago","type":"historic","name":"Cruceiro de Santa Marta","lat":42.8699415,"lon":-8.5584849},{"id":"osm-node-10280978930","stageId":"padron-santiago","type":"cafe","name":"Tropical","lat":42.8741255,"lon":-8.5496366},{"id":"osm-node-10303469875","stageId":"padron-santiago","type":"cafe","name":"Cafetería Hotel Araguaney","lat":42.8753579,"lon":-8.5475443},{"id":"osm-node-10303469890","stageId":"padron-santiago","type":"cafe","name":"Arena","lat":42.8747488,"lon":-8.5476731,"notes":"Hours: Mo-Su 07:30-00:00"},{"id":"osm-node-10544361505","stageId":"caldas-padron","type":"historic","name":"Cruceiro (wayside cross)","lat":42.6996027,"lon":-8.6385062},{"id":"osm-node-10559847058","stageId":"padron-santiago","type":"cafe","name":"El SEU","lat":42.8755017,"lon":-8.5537483},{"id":"osm-node-10608826875","stageId":"redondela-pontevedra","type":"historic","name":"Escultura “Dorna\" Homenaxe ao Camiño de Santiago","lat":42.4219051,"lon":-8.6366136},{"id":"osm-node-10616424785","stageId":"redondela-pontevedra","type":"viewpoint","name":"Viewpoint","lat":42.3206448,"lon":-8.6037829},{"id":"osm-node-10693853171","stageId":"caldas-padron","type":"historic","name":"Cruceiro de San Miguel de Valga","lat":42.6959186,"lon":-8.63804},{"id":"osm-node-10737329770","stageId":"pontevedra-caldas","type":"historic","name":"Cruceiro de Santa Maria de Alba","lat":42.4624626,"lon":-8.6444375},{"id":"osm-node-10753665470","stageId":"oporrino-redondela","type":"historic","name":"Cruceiro (wayside cross)","lat":42.204316,"lon":-8.6061611},{"id":"osm-node-10756102856","stageId":"pontevedra-caldas","type":"historic","name":"Cruceiro de Tivo","lat":42.5895378,"lon":-8.6455236},{"id":"osm-node-10756362763","stageId":"caldas-padron","type":"historic","name":"Cruceiro (wayside cross)","lat":42.694638,"lon":-8.6388233},{"id":"osm-node-10781898886","stageId":"caldas-padron","type":"water","name":"Drinking fountain","lat":42.7265652,"lon":-8.6557573},{"id":"osm-node-10781948725","stageId":"tui-oporrino","type":"water","name":"Drinking fountain","lat":42.0460488,"lon":-8.6420683},{"id":"osm-node-10782651805","stageId":"pontevedra-caldas","type":"historic","name":"Monumento a Castelao","lat":42.4326236,"lon":-8.643173},{"id":"osm-node-10782680805","stageId":"pontevedra-caldas","type":"church","name":"Santuario das Aparicións","lat":42.4338899,"lon":-8.6464355},{"id":"osm-node-10804995616","stageId":"padron-santiago","type":"albergue","name":"La Calabaza del Peregrino","lat":42.8099118,"lon":-8.6280581},{"id":"osm-node-10873193915","stageId":"oporrino-redondela","type":"water","name":"Drinking fountain","lat":42.22398,"lon":-8.6068662},{"id":"osm-node-10873195361","stageId":"tui-oporrino","type":"water","name":"Drinking fountain","lat":42.0536556,"lon":-8.6370749},{"id":"osm-node-10873196838","stageId":"padron-santiago","type":"water","name":"Drinking fountain","lat":42.8147978,"lon":-8.6211234},{"id":"osm-node-10873211927","stageId":"caldas-padron","type":"water","name":"Drinking fountain","lat":42.6553211,"lon":-8.6431634},{"id":"osm-node-10906839099","stageId":"padron-santiago","type":"cafe","name":"Vivacce","lat":42.8728774,"lon":-8.5494187},{"id":"osm-node-10918103724","stageId":"redondela-pontevedra","type":"water","name":"Drinking fountain","lat":42.2824898,"lon":-8.6105331},{"id":"osm-node-10918103725","stageId":"redondela-pontevedra","type":"water","name":"Drinking fountain","lat":42.2898916,"lon":-8.6110014},{"id":"osm-node-10918103726","stageId":"redondela-pontevedra","type":"water","name":"Drinking fountain","lat":42.2824645,"lon":-8.6098793},{"id":"osm-node-10967921656","stageId":"oporrino-redondela","type":"historic","name":"Ramón Obella Vidal","lat":42.1623276,"lon":-8.6241271},{"id":"osm-node-10978330700","stageId":"caldas-padron","type":"albergue","name":"Albergue As pozas Termais","lat":42.603203,"lon":-8.6442512},{"id":"osm-node-10978942756","stageId":"padron-santiago","type":"historic","name":"A Escritora na súa Terra a Marilar Aleixandre","lat":42.8712983,"lon":-8.5605756},{"id":"osm-node-10978942757","stageId":"padron-santiago","type":"historic","name":"Cruceiro do Campo de Santa Marta","lat":42.8700703,"lon":-8.5598796},{"id":"osm-node-10979195862","stageId":"padron-santiago","type":"historic","name":"Cruceiro da Capela de Santa Susana","lat":42.8773434,"lon":-8.5494097},{"id":"osm-node-10982346466","stageId":"redondela-pontevedra","type":"water","name":"Drinking fountain","lat":42.2891559,"lon":-8.6115742},{"id":"osm-node-11046168801","stageId":"padron-santiago","type":"water","name":"Drinking fountain","lat":42.8768761,"lon":-8.5498162},{"id":"osm-node-11108569548","stageId":"padron-santiago","type":"historic","name":"Cruceiro (wayside cross)","lat":42.7961766,"lon":-8.6414465},{"id":"osm-node-11154675535","stageId":"padron-santiago","type":"historic","name":"Cruceiro (wayside cross)","lat":42.768352,"lon":-8.6521526},{"id":"osm-node-11171742337","stageId":"redondela-pontevedra","type":"albergue","name":"GBC Hostel","lat":42.4220977,"lon":-8.636957},{"id":"osm-node-11176389637","stageId":"pontevedra-caldas","type":"albergue","name":"Turoqua Hostel","lat":42.4333335,"lon":-8.6447662},{"id":"osm-node-11176465837","stageId":"pontevedra-caldas","type":"water","name":"Drinking fountain","lat":42.4327725,"lon":-8.6472949},{"id":"osm-node-11180838760","stageId":"padron-santiago","type":"water","name":"Drinking fountain","lat":42.8146206,"lon":-8.6206825},{"id":"osm-node-11187630992","stageId":"padron-santiago","type":"historic","name":"Cruceiro da Madalena","lat":42.8433657,"lon":-8.580888},{"id":"osm-node-11231032337","stageId":"padron-santiago","type":"albergue","name":"Albergue da Meiga","lat":42.7325733,"lon":-8.660182,"notes":"Hours: Mo-Su 07:00-08:30,13:00-19:00"},{"id":"osm-node-11296173806","stageId":"tui-oporrino","type":"historic","name":"Cruceiro (wayside cross)","lat":42.0475215,"lon":-8.6442133},{"id":"osm-node-11313810010","stageId":"redondela-pontevedra","type":"historic","name":"Cruceiro (wayside cross)","lat":42.2827216,"lon":-8.6081509},{"id":"osm-node-11313810012","stageId":"redondela-pontevedra","type":"historic","name":"Cruceiro de Santa Mariña","lat":42.2903347,"lon":-8.6082461},{"id":"osm-node-11313810013","stageId":"redondela-pontevedra","type":"historic","name":"Cruceiro do Carballo","lat":42.2824743,"lon":-8.6059167},{"id":"osm-node-11313810017","stageId":"redondela-pontevedra","type":"historic","name":"Cruceiro e Peto de ánimas de Pasais","lat":42.2823022,"lon":-8.6073307},{"id":"osm-node-11327895836","stageId":"redondela-pontevedra","type":"cafe","name":"Vila Bella","lat":42.2787874,"lon":-8.6100559},{"id":"osm-node-11328070237","stageId":"redondela-pontevedra","type":"cafe","name":"Violeta","lat":42.2843943,"lon":-8.6095639},{"id":"osm-node-11328070241","stageId":"redondela-pontevedra","type":"cafe","name":"Bar A Cepa","lat":42.2810562,"lon":-8.6105137},{"id":"osm-node-11328070243","stageId":"redondela-pontevedra","type":"cafe","name":"4Esquinas","lat":42.2815696,"lon":-8.6101976},{"id":"osm-node-11328070244","stageId":"redondela-pontevedra","type":"cafe","name":"Embark2","lat":42.2869547,"lon":-8.6109202},{"id":"osm-node-11328070245","stageId":"redondela-pontevedra","type":"cafe","name":"Café Royal Picasso","lat":42.2795236,"lon":-8.6116826},{"id":"osm-node-11328070251","stageId":"redondela-pontevedra","type":"cafe","name":"Na Lúa","lat":42.2865208,"lon":-8.6106778},{"id":"osm-node-11330023949","stageId":"tui-oporrino","type":"albergue","name":"Albergue Santo Domingo","lat":42.0487116,"lon":-8.6407144},{"id":"osm-node-11352164832","stageId":"padron-santiago","type":"water","name":"Drinking fountain","lat":42.7454659,"lon":-8.6541884},{"id":"osm-node-11467282742","stageId":"pontevedra-caldas","type":"water","name":"Drinking fountain","lat":42.4431378,"lon":-8.6433604},{"id":"osm-node-11494818740","stageId":"redondela-pontevedra","type":"water","name":"Drinking fountain","lat":42.4262011,"lon":-8.6372816},{"id":"osm-node-11495464161","stageId":"redondela-pontevedra","type":"water","name":"Drinking fountain","lat":42.4270309,"lon":-8.6373516},{"id":"osm-node-11522746666","stageId":"padron-santiago","type":"historic","name":"Cruceiro (wayside cross)","lat":42.7387782,"lon":-8.6632337},{"id":"osm-node-11527520130","stageId":"padron-santiago","type":"historic","name":"Cruceiro (wayside cross)","lat":42.7444307,"lon":-8.6566837},{"id":"osm-node-11543411495","stageId":"redondela-pontevedra","type":"cafe","name":"Café Bar Bule Bule","lat":42.2858741,"lon":-8.6104174},{"id":"osm-node-11569306724","stageId":"caldas-padron","type":"cafe","name":"Fogar do Peregrino","lat":42.658671,"lon":-8.636488},{"id":"osm-node-11649302671","stageId":"padron-santiago","type":"historic","name":"Cruceiro (wayside cross)","lat":42.7673724,"lon":-8.6520895},{"id":"osm-node-11763981827","stageId":"caldas-padron","type":"historic","name":"Cruceiro do Cantillo","lat":42.7256306,"lon":-8.6525678},{"id":"osm-node-11773163369","stageId":"tui-oporrino","type":"historic","name":"Sócrates","lat":42.0499366,"lon":-8.641638},{"id":"osm-node-11773166269","stageId":"tui-oporrino","type":"albergue","name":"Albergue Convento Del Camino","lat":42.049181,"lon":-8.640415},{"id":"osm-node-11833932918","stageId":"padron-santiago","type":"water","name":"Drinking fountain","lat":42.8451509,"lon":-8.5807471},{"id":"osm-node-11876955902","stageId":"redondela-pontevedra","type":"cafe","name":"El huerto del Cura","lat":42.2848943,"lon":-8.6084591,"notes":"Hours: Mo-Fr 08:30-23:30; Sa-Su 09:30-23:30"},{"id":"osm-node-11884764039","stageId":"redondela-pontevedra","type":"cafe","name":"Café Bar A Farola","lat":42.281706,"lon":-8.6090604,"notes":"Hours: Mo-Sa 06:00-23:00"},{"id":"osm-node-11888748027","stageId":"redondela-pontevedra","type":"cafe","name":"Bubba Café Brunch","lat":42.2797993,"lon":-8.6110632,"notes":"Hours: Th-Fr 09:00-14:30,17:30-21:00; Sa-Su 09:00-15:00"},{"id":"osm-node-11910241713","stageId":"redondela-pontevedra","type":"cafe","name":"Bar Ruada","lat":42.2874432,"lon":-8.6082344},{"id":"osm-node-11919420675","stageId":"pontevedra-caldas","type":"water","name":"Drinking fountain","lat":42.4267744,"lon":-8.6433981},{"id":"osm-node-11919420706","stageId":"pontevedra-caldas","type":"cafe","name":"Nox","lat":42.428566,"lon":-8.6431404},{"id":"osm-node-11919479787","stageId":"pontevedra-caldas","type":"cafe","name":"Acuña","lat":42.4294576,"lon":-8.6416557,"notes":"Hours: Mo-Su,PH 08:00-22:00"},{"id":"osm-node-11928042820","stageId":"redondela-pontevedra","type":"albergue","name":"A Marisma","lat":42.2861081,"lon":-8.6104436},{"id":"osm-node-11931996057","stageId":"redondela-pontevedra","type":"historic","name":"Cruceiro (wayside cross)","lat":42.2838097,"lon":-8.6101806},{"id":"osm-node-11933251018","stageId":"redondela-pontevedra","type":"water","name":"Drinking fountain","lat":42.4247507,"lon":-8.6386409},{"id":"osm-node-11939761695","stageId":"redondela-pontevedra","type":"cafe","name":"Gastropub Trisquel","lat":42.2843154,"lon":-8.6082019},{"id":"osm-node-11983757845","stageId":"padron-santiago","type":"cafe","name":"Café Dalia","lat":42.8746376,"lon":-8.5468084},{"id":"osm-node-11984377822","stageId":"padron-santiago","type":"cafe","name":"Lembranza","lat":42.8753355,"lon":-8.5495281},{"id":"osm-node-11999052586","stageId":"redondela-pontevedra","type":"cafe","name":"A Nova Fragua","lat":42.2898382,"lon":-8.6119632},{"id":"osm-node-12032082064","stageId":"redondela-pontevedra","type":"cafe","name":"Os Amigos","lat":42.2860079,"lon":-8.6092038},{"id":"osm-node-12083247503","stageId":"padron-santiago","type":"cafe","name":"Lar","lat":42.8095122,"lon":-8.6298409},{"id":"osm-node-12083330459","stageId":"padron-santiago","type":"cafe","name":"Faramello","lat":42.809328,"lon":-8.6309203},{"id":"osm-node-12092436374","stageId":"caldas-padron","type":"cafe","name":"Número 2","lat":42.6061696,"lon":-8.6451281,"notes":"Hours: Tu-Su 12:00-00:00"},{"id":"osm-node-12097712312","stageId":"padron-santiago","type":"albergue","name":"ArArAt","lat":42.8745516,"lon":-8.5487711},{"id":"osm-node-12099984410","stageId":"redondela-pontevedra","type":"water","name":"Drinking fountain","lat":42.4215228,"lon":-8.6383173},{"id":"osm-node-12133567108","stageId":"tui-oporrino","type":"cafe","name":"Oscar Romero","lat":42.047146,"lon":-8.6448607},{"id":"osm-node-12142993404","stageId":"redondela-pontevedra","type":"albergue","name":"O Mesón","lat":42.3485593,"lon":-8.607316},{"id":"osm-node-12142993501","stageId":"redondela-pontevedra","type":"historic","name":"Mejillón","lat":42.3418157,"lon":-8.6097275},{"id":"osm-node-12143777601","stageId":"redondela-pontevedra","type":"historic","name":"Cruceiro (wayside cross)","lat":42.348206,"lon":-8.6079372},{"id":"osm-node-12143777701","stageId":"redondela-pontevedra","type":"water","name":"Drinking fountain","lat":42.3496787,"lon":-8.6081396},{"id":"osm-node-12143777901","stageId":"redondela-pontevedra","type":"historic","name":"Cruceiro do Souto","lat":42.3494808,"lon":-8.609498},{"id":"osm-node-12143878501","stageId":"redondela-pontevedra","type":"historic","name":"Cruceiro (wayside cross)","lat":42.3946305,"lon":-8.629272},{"id":"osm-node-12143998308","stageId":"redondela-pontevedra","type":"albergue","name":"Peregrino","lat":42.4197795,"lon":-8.6366599},{"id":"osm-node-12143998809","stageId":"redondela-pontevedra","type":"cafe","name":"La Estrella de la Estación","lat":42.4217815,"lon":-8.6359422},{"id":"osm-node-12144087504","stageId":"pontevedra-caldas","type":"cafe","name":"Cambalache","lat":42.4269131,"lon":-8.6407685,"notes":"Hours: Mo-Su 13:00-16:00, Su-Th 20:00-23:30, Fr,Sa 20:00-24:00"},{"id":"osm-node-12145715102","stageId":"pontevedra-caldas","type":"historic","name":"A Magno Magencio","lat":42.4747092,"lon":-8.6499254},{"id":"osm-node-12145829901","stageId":"pontevedra-caldas","type":"historic","name":"Cruceiro (wayside cross)","lat":42.5047108,"lon":-8.6498072},{"id":"osm-node-12145830101","stageId":"pontevedra-caldas","type":"historic","name":"Cruceiro (wayside cross)","lat":42.5055789,"lon":-8.6492894},{"id":"osm-node-12145830104","stageId":"pontevedra-caldas","type":"historic","name":"Estatua","lat":42.5106906,"lon":-8.6491529},{"id":"osm-node-12145830303","stageId":"pontevedra-caldas","type":"historic","name":"Cruceiro (wayside cross)","lat":42.5328728,"lon":-8.6458555},{"id":"osm-node-12145830701","stageId":"pontevedra-caldas","type":"historic","name":"Cruceiro (wayside cross)","lat":42.5116336,"lon":-8.6502883},{"id":"osm-node-12145831402","stageId":"pontevedra-caldas","type":"historic","name":"Cruceiro (wayside cross)","lat":42.52586,"lon":-8.6451441},{"id":"osm-node-12146547001","stageId":"caldas-padron","type":"historic","name":"A María Teresa Fernández Mosquera","lat":42.6014616,"lon":-8.6426892},{"id":"osm-node-12146583402","stageId":"caldas-padron","type":"historic","name":"Cruceiro (wayside cross)","lat":42.6056,"lon":-8.645807},{"id":"osm-node-12147487003","stageId":"caldas-padron","type":"albergue","name":"Antonio","lat":42.648163,"lon":-8.6460252},{"id":"osm-node-12147487305","stageId":"caldas-padron","type":"historic","name":"Zapato","lat":42.6518753,"lon":-8.6459393},{"id":"osm-node-12147681335","stageId":"caldas-padron","type":"historic","name":"Cruceiro (wayside cross)","lat":42.7201903,"lon":-8.6495688},{"id":"osm-node-12147681337","stageId":"caldas-padron","type":"viewpoint","name":"Miradoiro do Piñeiro Manso","lat":42.7217485,"lon":-8.6503084},{"id":"osm-node-12147682204","stageId":"caldas-padron","type":"water","name":"Fonte de San Miguel","lat":42.6940265,"lon":-8.6380217},{"id":"osm-node-12147682212","stageId":"caldas-padron","type":"cafe","name":"Farrucan","lat":42.7250247,"lon":-8.6555746},{"id":"osm-node-12147697403","stageId":"caldas-padron","type":"historic","name":"Cruz de San Xulián","lat":42.7246807,"lon":-8.6504424},{"id":"osm-node-12147697719","stageId":"caldas-padron","type":"historic","name":"Cruceiro da Ponte","lat":42.7252762,"lon":-8.655692},{"id":"osm-node-12147699501","stageId":"caldas-padron","type":"historic","name":"Cruceiro (wayside cross)","lat":42.6608709,"lon":-8.6363727},{"id":"osm-node-12147699903","stageId":"caldas-padron","type":"water","name":"Drinking fountain","lat":42.7253309,"lon":-8.6558029},{"id":"osm-node-12147699904","stageId":"caldas-padron","type":"albergue","name":"A de Pepita","lat":42.7256095,"lon":-8.6566242},{"id":"osm-node-12147700008","stageId":"caldas-padron","type":"historic","name":"Cruceiro do Xacobeo","lat":42.7255025,"lon":-8.6537253},{"id":"osm-node-12148049548","stageId":"padron-santiago","type":"historic","name":"Memorial","lat":42.7451364,"lon":-8.6563193},{"id":"osm-node-12149661102","stageId":"padron-santiago","type":"historic","name":"Cruceiro (wayside cross)","lat":42.7454877,"lon":-8.6554738},{"id":"osm-node-12149661103","stageId":"padron-santiago","type":"historic","name":"Cruceiro (wayside cross)","lat":42.7632935,"lon":-8.654201},{"id":"osm-node-12149661202","stageId":"padron-santiago","type":"historic","name":"Cruceiro (wayside cross)","lat":42.7479708,"lon":-8.6524481},{"id":"osm-node-12149661205","stageId":"padron-santiago","type":"water","name":"Drinking fountain","lat":42.7700166,"lon":-8.6531651},{"id":"osm-node-12149661302","stageId":"padron-santiago","type":"historic","name":"Cruceiro (wayside cross)","lat":42.7854916,"lon":-8.6484618},{"id":"osm-node-12149661401","stageId":"padron-santiago","type":"cafe","name":"Kiosko Aier","lat":42.7496904,"lon":-8.6543575},{"id":"osm-node-12149661906","stageId":"padron-santiago","type":"water","name":"Drinking fountain","lat":42.8018235,"lon":-8.6377824},{"id":"osm-node-12149661916","stageId":"padron-santiago","type":"viewpoint","name":"Viewpoint","lat":42.8213191,"lon":-8.6166704},{"id":"osm-node-12149662102","stageId":"padron-santiago","type":"historic","name":"Cruceiro (wayside cross)","lat":42.7801769,"lon":-8.6508993},{"id":"osm-node-12149662113","stageId":"padron-santiago","type":"water","name":"Drinking fountain","lat":42.8598299,"lon":-8.5764547},{"id":"osm-node-12149662120","stageId":"padron-santiago","type":"cafe","name":"Nova Lili","lat":42.8712,"lon":-8.5567017},{"id":"osm-node-12309351579","stageId":"padron-santiago","type":"cafe","name":"Mesón Cestaños","lat":42.8773995,"lon":-8.5459766},{"id":"osm-node-12376889620","stageId":"padron-santiago","type":"cafe","name":"Nömada","lat":42.8718116,"lon":-8.5568978},{"id":"osm-node-12427045901","stageId":"redondela-pontevedra","type":"water","name":"Drinking fountain","lat":42.3445697,"lon":-8.6083061},{"id":"osm-node-12488090023","stageId":"pontevedra-caldas","type":"historic","name":"Cruceiro de Santiago","lat":42.4363929,"lon":-8.64317},{"id":"osm-node-12532330276","stageId":"caldas-padron","type":"cafe","name":"Inmerso","lat":42.6046202,"lon":-8.6438422},{"id":"osm-node-12536287718","stageId":"caldas-padron","type":"historic","name":"Cruceiro da Alfóndiga","lat":42.6051781,"lon":-8.642844},{"id":"osm-node-12536549164","stageId":"caldas-padron","type":"historic","name":"Cruceiro (wayside cross)","lat":42.6058498,"lon":-8.6450199},{"id":"osm-node-12537251925","stageId":"caldas-padron","type":"historic","name":"Cruceiro (wayside cross)","lat":42.6044369,"lon":-8.6429124},{"id":"osm-node-12540016251","stageId":"pontevedra-caldas","type":"albergue","name":"Pensión Santa Clara","lat":42.432335,"lon":-8.6393951},{"id":"osm-node-12540016267","stageId":"pontevedra-caldas","type":"cafe","name":"O fogar dos Martinez","lat":42.432229,"lon":-8.6422506,"notes":"Hours: Mo-Fr 10:00-16:00,20:00-24:00; Sa-Su off"},{"id":"osm-node-12540016272","stageId":"pontevedra-caldas","type":"cafe","name":"mamajuana","lat":42.4325959,"lon":-8.6422816},{"id":"osm-node-12542963854","stageId":"oporrino-redondela","type":"cafe","name":"Bar O Chiringito","lat":42.1841375,"lon":-8.6188017},{"id":"osm-node-12543275720","stageId":"pontevedra-caldas","type":"cafe","name":"O Panderetas","lat":42.434328,"lon":-8.6473225},{"id":"osm-node-12620933642","stageId":"tui-oporrino","type":"cafe","name":"Bar Muñiz","lat":42.0630859,"lon":-8.6407564},{"id":"osm-node-12623556337","stageId":"redondela-pontevedra","type":"historic","name":"Cruceiro (wayside cross)","lat":42.3113364,"lon":-8.6044828},{"id":"osm-node-12674327511","stageId":"padron-santiago","type":"historic","name":"Universidade de Santiago de Compostela","lat":42.8732494,"lon":-8.5535718},{"id":"osm-node-12696078976","stageId":"pontevedra-caldas","type":"historic","name":"Cruceiro (wayside cross)","lat":42.5238344,"lon":-8.6463758},{"id":"osm-node-12699349599","stageId":"padron-santiago","type":"water","name":"Drinking fountain","lat":42.745608,"lon":-8.6547572},{"id":"osm-node-12699349918","stageId":"padron-santiago","type":"historic","name":"Cruceiro (wayside cross)","lat":42.7459242,"lon":-8.6547816},{"id":"osm-node-12699349919","stageId":"padron-santiago","type":"historic","name":"Cruceiro (wayside cross)","lat":42.7455419,"lon":-8.6549269},{"id":"osm-node-12714542457","stageId":"caldas-padron","type":"historic","name":"Cruceiro (wayside cross)","lat":42.7176749,"lon":-8.6479963},{"id":"osm-node-12715922629","stageId":"caldas-padron","type":"historic","name":"Cruceiro (wayside cross)","lat":42.7211307,"lon":-8.6510779},{"id":"osm-node-12738983248","stageId":"padron-santiago","type":"historic","name":"Memorial","lat":42.877348,"lon":-8.5467808},{"id":"osm-node-12741864914","stageId":"padron-santiago","type":"water","name":"Drinking fountain","lat":42.8672779,"lon":-8.5587359},{"id":"osm-node-12805945889","stageId":"pontevedra-caldas","type":"church","name":"Igrexa de San Francisco","lat":42.4313226,"lon":-8.6432353},{"id":"osm-node-12809603727","stageId":"redondela-pontevedra","type":"church","name":"Igrexa de Santiago de Vilavella","lat":42.2785387,"lon":-8.6101516},{"id":"osm-node-12862083101","stageId":"tui-oporrino","type":"cafe","name":"San Campio de Pontellas","lat":42.1331459,"lon":-8.6411087},{"id":"osm-node-12864206801","stageId":"oporrino-redondela","type":"cafe","name":"Bar Baqueiro","lat":42.2387241,"lon":-8.6132562,"notes":"Hours: Su-Mo, We-Th 10:00-23:30; Fr-Sa 10:00-00:30"},{"id":"osm-node-12897330708","stageId":"padron-santiago","type":"water","name":"Drinking fountain","lat":42.8433483,"lon":-8.580562},{"id":"osm-node-12947779285","stageId":"caldas-padron","type":"cafe","name":"Tia Maruja","lat":42.6053642,"lon":-8.6457556},{"id":"osm-node-12964553088","stageId":"caldas-padron","type":"albergue","name":"Albergue de Caldas de Reis Urraca","lat":42.6056397,"lon":-8.6452889},{"id":"osm-node-12969150446","stageId":"redondela-pontevedra","type":"albergue","name":"Albergue de Peregrinos Casa da Torre","lat":42.2822487,"lon":-8.6085176,"notes":"Hours: Mo-Su 13:00-22:00"},{"id":"osm-node-12979516748","stageId":"padron-santiago","type":"cafe","name":"Alaska","lat":42.8753482,"lon":-8.5503293},{"id":"osm-node-13019224135","stageId":"padron-santiago","type":"cafe","name":"Tartitis","lat":42.8757985,"lon":-8.5491885},{"id":"osm-node-13034687239","stageId":"padron-santiago","type":"viewpoint","name":"Viewpoint","lat":42.860935,"lon":-8.5737673},{"id":"osm-node-13068243901","stageId":"caldas-padron","type":"cafe","name":"Bendito Sabor","lat":42.60537,"lon":-8.6445195},{"id":"osm-node-13084646668","stageId":"caldas-padron","type":"cafe","name":"Narciso","lat":42.6044726,"lon":-8.6416081},{"id":"osm-node-13096679701","stageId":"redondela-pontevedra","type":"albergue","name":"Anabel Home","lat":42.2849754,"lon":-8.6073352},{"id":"osm-node-13096837201","stageId":"pontevedra-caldas","type":"albergue","name":"Slow City Hostel","lat":42.4335203,"lon":-8.647137},{"id":"osm-node-13124809300","stageId":"pontevedra-caldas","type":"water","name":"Drinking fountain","lat":42.4579904,"lon":-8.6442251},{"id":"osm-node-13141738125","stageId":"caldas-padron","type":"cafe","name":"BmB's Bar","lat":42.6064023,"lon":-8.6443284},{"id":"osm-node-13149311086","stageId":"padron-santiago","type":"cafe","name":"Mi Valle","lat":42.8739963,"lon":-8.5501142,"notes":"Hours: Mo,Tu,Th,Fr 10:00-23:00; Sa,Su 10:00-24:00; We off"},{"id":"osm-node-13151619349","stageId":"padron-santiago","type":"cafe","name":"Karaoke Makumba","lat":42.8733549,"lon":-8.5507447},{"id":"osm-node-13156972874","stageId":"padron-santiago","type":"albergue","name":"O Lagar de Jesús","lat":42.7769985,"lon":-8.6548519},{"id":"osm-node-13179685431","stageId":"padron-santiago","type":"cafe","name":"La Brujita","lat":42.8129821,"lon":-8.6220802},{"id":"osm-node-13184846857","stageId":"redondela-pontevedra","type":"water","name":"Drinking fountain","lat":42.4220594,"lon":-8.6367165},{"id":"osm-node-13202268501","stageId":"tui-oporrino","type":"cafe","name":"Café bar Candelas","lat":42.1311162,"lon":-8.6394078,"notes":"Hours: Mo-Th 08:30-16:30"},{"id":"osm-node-13256423989","stageId":"redondela-pontevedra","type":"historic","name":"Cruceiro (wayside cross)","lat":42.4012593,"lon":-8.6317179},{"id":"osm-node-13273227479","stageId":"padron-santiago","type":"cafe","name":"Dublin","lat":42.8466619,"lon":-8.578276},{"id":"osm-node-13295053628","stageId":"padron-santiago","type":"cafe","name":"Chajá","lat":42.8748631,"lon":-8.5524081},{"id":"osm-node-13307178494","stageId":"oporrino-redondela","type":"cafe","name":"O Novo Regueiro","lat":42.2737966,"lon":-8.6104856},{"id":"osm-node-13537468378","stageId":"padron-santiago","type":"cafe","name":"Bear Bubble Tea","lat":42.8744477,"lon":-8.5511036},{"id":"osm-node-13544592787","stageId":"caldas-padron","type":"albergue","name":"Albergue Albor","lat":42.605287,"lon":-8.644682},{"id":"osm-node-13544660227","stageId":"padron-santiago","type":"albergue","name":"Albergue Camiño da Vieira","lat":42.795062,"lon":-8.644856},{"id":"osm-node-13550918771","stageId":"tui-oporrino","type":"albergue","name":"Albergue Pallanes","lat":42.054224,"lon":-8.641362},{"id":"osm-node-13613992299","stageId":"padron-santiago","type":"cafe","name":"Viruxe","lat":42.8727887,"lon":-8.5526876,"notes":"Hours: Mo-Fr 07:30-16:30; Sa 09:00-13:00"},{"id":"osm-node-13680054401","stageId":"redondela-pontevedra","type":"cafe","name":"Furancho de Elisa","lat":42.3754029,"lon":-8.6277703},{"id":"osm-node-13742023898","stageId":"pontevedra-caldas","type":"historic","name":"Memorial","lat":42.4269864,"lon":-8.6433917},{"id":"osm-node-13809064901","stageId":"redondela-pontevedra","type":"historic","name":"Acibo en lembranza da loita contra a empacadora","lat":42.3787665,"lon":-8.6248626},{"id":"osm-node-13854113296","stageId":"padron-santiago","type":"cafe","name":"Gasteiz Pub Rock","lat":42.8749475,"lon":-8.5504816},{"id":"osm-node-13854609801","stageId":"padron-santiago","type":"cafe","name":"Cafetaría Centro Social","lat":42.7361274,"lon":-8.6604959},{"id":"osm-node-13894115173","stageId":"caldas-padron","type":"cafe","name":"Café Bar Galicia","lat":42.7222335,"lon":-8.6510053},{"id":"osm-node-13931819033","stageId":"padron-santiago","type":"cafe","name":"Bambola","lat":42.7391417,"lon":-8.6595041},{"id":"osm-node-13959544998","stageId":"padron-santiago","type":"cafe","name":"Tosta e Tostiña","lat":42.875821,"lon":-8.5504032},{"id":"osm-node-13972122927","stageId":"padron-santiago","type":"water","name":"Drinking fountain","lat":42.8696763,"lon":-8.560173},{"id":"osm-node-13972154740","stageId":"padron-santiago","type":"water","name":"Drinking fountain","lat":42.860822,"lon":-8.5737638},{"id":"osm-way-48475377","stageId":"padron-santiago","type":"church","name":"Capela de Santa Susana","lat":42.877511,"lon":-8.5493378,"notes":"Hours: We-Sa 16:00-19:00"},{"id":"osm-way-59337536","stageId":"oporrino-redondela","type":"church","name":"Capela da Nosa Señora das Angustias","lat":42.166065,"lon":-8.6199973},{"id":"osm-way-60237341","stageId":"pontevedra-caldas","type":"church","name":"Igrexa de San Bartolomeu de Pontevedra","lat":42.4331256,"lon":-8.6424506},{"id":"osm-way-60237349","stageId":"pontevedra-caldas","type":"church","name":"Capela da Virxe Peregrina","lat":42.4307717,"lon":-8.6436042},{"id":"osm-way-91899709","stageId":"tui-oporrino","type":"church","name":"Igrexa de San Francisco","lat":42.0482156,"lon":-8.6437793},{"id":"osm-way-92937553","stageId":"oporrino-redondela","type":"albergue","name":"Albergue de Pelegrins","lat":42.162148,"lon":-8.6247353},{"id":"osm-way-158587508","stageId":"pontevedra-caldas","type":"church","name":"Real Basílica de Santa María a Maior","lat":42.4337758,"lon":-8.6475775,"notes":"Hours: Mo-Su 09:30-13:30,17:00-21:00"},{"id":"osm-way-158594413","stageId":"pontevedra-caldas","type":"church","name":"Igrexa de San Xosé de Campolongo","lat":42.4272033,"lon":-8.643384},{"id":"osm-way-163462148","stageId":"redondela-pontevedra","type":"church","name":"Igrexa de Santiago de Redondela","lat":42.2831829,"lon":-8.6073307},{"id":"osm-way-163506953","stageId":"redondela-pontevedra","type":"church","name":"Capela de Santa Mariña","lat":42.2883355,"lon":-8.6085716},{"id":"osm-way-165522878","stageId":"tui-oporrino","type":"church","name":"Igrexa de San Domingos","lat":42.0489167,"lon":-8.6400438},{"id":"osm-way-165522886","stageId":"tui-oporrino","type":"church","name":"Igrexa de San Bartolomeu de Rebordáns","lat":42.0533106,"lon":-8.6390394},{"id":"osm-way-165524623","stageId":"tui-oporrino","type":"church","name":"Igrexa de San Telmo","lat":42.04588,"lon":-8.6435613},{"id":"osm-way-170361997","stageId":"oporrino-redondela","type":"albergue","name":"Albergue de Peregrinos de Mos","lat":42.2045653,"lon":-8.6063411},{"id":"osm-way-170363322","stageId":"redondela-pontevedra","type":"albergue","name":"Albergue de Peregrinos de Pontevedra","lat":42.4195125,"lon":-8.6362595},{"id":"osm-way-172974030","stageId":"padron-santiago","type":"albergue","name":"Albergue de Peregrinos de Padrón","lat":42.7385334,"lon":-8.6634255},{"id":"osm-way-172975595","stageId":"padron-santiago","type":"albergue","name":"Albergue de Peregrinos do Faramello","lat":42.8108542,"lon":-8.6226547},{"id":"osm-way-181249622","stageId":"oporrino-redondela","type":"church","name":"Igrexa de Santa Eulalia de Mos","lat":42.2038324,"lon":-8.6054573},{"id":"osm-way-186878863","stageId":"padron-santiago","type":"church","name":"Capela do Pilar","lat":42.8764022,"lon":-8.548342},{"id":"osm-way-238386131","stageId":"oporrino-redondela","type":"church","name":"Igrexa de San Martiño de Vilar de Infesta","lat":42.2411311,"lon":-8.6155748},{"id":"osm-way-252667324","stageId":"tui-oporrino","type":"church","name":"Capela de Nosa Señora da Guía","lat":42.1497252,"lon":-8.6217022},{"id":"osm-way-252736668","stageId":"oporrino-redondela","type":"church","name":"Capela do Santísimo Cristo da Agonía","lat":42.1625497,"lon":-8.6205055},{"id":"osm-way-256294253","stageId":"tui-oporrino","type":"church","name":"Capela da Virxe do Camiño","lat":42.0659012,"lon":-8.6386111},{"id":"osm-way-271244603","stageId":"pontevedra-caldas","type":"church","name":"Convento de Santa Clara","lat":42.4321989,"lon":-8.6401639},{"id":"osm-way-294819183","stageId":"padron-santiago","type":"church","name":"Igrexa de Santiago de Padrón","lat":42.7391692,"lon":-8.6616187},{"id":"osm-way-302046623","stageId":"padron-santiago","type":"church","name":"Igrexa de Santa María de Iria Flavia","lat":42.7458593,"lon":-8.6551119},{"id":"osm-way-303656095","stageId":"padron-santiago","type":"church","name":"Capela de Santa Marta","lat":42.8698725,"lon":-8.5582284},{"id":"osm-way-335580614","stageId":"tui-oporrino","type":"church","name":"Mosteiro de Nosa Señora da Concepción","lat":42.0472536,"lon":-8.6438599},{"id":"osm-way-335612865","stageId":"tui-oporrino","type":"albergue","name":"Albergue de Peregrinos de Tui","lat":42.0461131,"lon":-8.6437802},{"id":"osm-way-344755801","stageId":"padron-santiago","type":"church","name":"Santuario da Nosa Señora da Escravitude","lat":42.7840037,"lon":-8.6496798},{"id":"osm-way-377892146","stageId":"tui-oporrino","type":"church","name":"Capela de San Campio","lat":42.1335767,"lon":-8.641085},{"id":"osm-way-400198890","stageId":"caldas-padron","type":"church","name":"Igrexa de San Tomé de Caldas de Reis","lat":42.6043516,"lon":-8.6425698},{"id":"osm-way-405779319","stageId":"redondela-pontevedra","type":"church","name":"Capela de Santa Marta","lat":42.3946172,"lon":-8.6291398},{"id":"osm-way-405779332","stageId":"pontevedra-caldas","type":"church","name":"Igrexa de Santa María de Alba","lat":42.4617202,"lon":-8.6443882},{"id":"osm-way-405779890","stageId":"caldas-padron","type":"albergue","name":"Albergue de Peregrinos do Pino","lat":42.6776173,"lon":-8.6410658},{"id":"osm-way-427465238","stageId":"oporrino-redondela","type":"church","name":"Capela de Santiaguiño de Anta","lat":42.2284493,"lon":-8.6105512},{"id":"osm-way-565851337","stageId":"redondela-pontevedra","type":"albergue","name":"Albergue Avoa Regina","lat":42.2875235,"lon":-8.6084847},{"id":"osm-way-567087949","stageId":"redondela-pontevedra","type":"albergue","name":"Albergue A Rotonda","lat":42.278249,"lon":-8.6119699},{"id":"osm-way-567519130","stageId":"redondela-pontevedra","type":"church","name":"Igrexa de San Pedro de Cesantes","lat":42.2998827,"lon":-8.6122696},{"id":"osm-way-568341648","stageId":"redondela-pontevedra","type":"albergue","name":"Albergue A Dársena do Francés","lat":42.2963771,"lon":-8.6100625},{"id":"osm-way-569696761","stageId":"oporrino-redondela","type":"albergue","name":"Brasil","lat":42.2676433,"lon":-8.6080673},{"id":"osm-way-589942518","stageId":"caldas-padron","type":"albergue","name":"Albergue de Peregrinos","lat":42.7218806,"lon":-8.6489237},{"id":"osm-way-627859539","stageId":"pontevedra-caldas","type":"church","name":"Igrexa de San Cristovo de Briallos","lat":42.5640901,"lon":-8.638464},{"id":"osm-way-659939587","stageId":"padron-santiago","type":"church","name":"Igrexa de San Xosé do Milladoiro","lat":42.8469853,"lon":-8.583604},{"id":"osm-way-712076494","stageId":"caldas-padron","type":"church","name":"Igrexa de San Xulián de Pontecesures","lat":42.7210226,"lon":-8.6518603},{"id":"osm-way-715180893","stageId":"pontevedra-caldas","type":"church","name":"Capela do Nazareno","lat":42.4326161,"lon":-8.6460994},{"id":"osm-way-724703555","stageId":"padron-santiago","type":"church","name":"Capela de Santo Antonio","lat":42.7387805,"lon":-8.6600934},{"id":"osm-way-735267002","stageId":"padron-santiago","type":"church","name":"Capela da Madalena","lat":42.843424,"lon":-8.5806652},{"id":"osm-way-738202046","stageId":"caldas-padron","type":"church","name":"Capela de San Xulián de Requeixo","lat":42.7252998,"lon":-8.6506668},{"id":"osm-way-787824072","stageId":"pontevedra-caldas","type":"church","name":"Igrexa de Santiaguiño do Burgo","lat":42.4375966,"lon":-8.6414208},{"id":"osm-way-790351869","stageId":"caldas-padron","type":"church","name":"Igrexa de Santa María de Caldas de Reis","lat":42.6001488,"lon":-8.6430545},{"id":"osm-way-790354270","stageId":"caldas-padron","type":"church","name":"Capela de San Roque","lat":42.6083874,"lon":-8.6454286},{"id":"osm-way-790355228","stageId":"caldas-padron","type":"albergue","name":"GBC Hostel Caldas (formerly Albergue Celenis)","lat":42.6053177,"lon":-8.6492356},{"id":"osm-way-790355976","stageId":"caldas-padron","type":"church","name":"Igrexa de Santa Mariña de Carracedo","lat":42.6518654,"lon":-8.6457307},{"id":"osm-way-790356909","stageId":"pontevedra-caldas","type":"church","name":"Capela de Santa Lucía de Arcos da Condesa","lat":42.5704801,"lon":-8.6421372},{"id":"osm-way-816421424","stageId":"redondela-pontevedra","type":"church","name":"Igrexa de Santa Comba de Bértola","lat":42.3843396,"lon":-8.6263286},{"id":"osm-way-828842753","stageId":"redondela-pontevedra","type":"albergue","name":"O Refuxio de la Jerezana","lat":42.3051228,"lon":-8.6036238},{"id":"osm-way-832986804","stageId":"padron-santiago","type":"church","name":"Capela das Neves do Faramello","lat":42.8106173,"lon":-8.6291243},{"id":"osm-way-835521007","stageId":"redondela-pontevedra","type":"church","name":"Igrexa de Santa María de Ponte Sampaio","lat":42.3488343,"lon":-8.6066781},{"id":"osm-way-916342510","stageId":"padron-santiago","type":"church","name":"Igrexa de Santa María de Cruces","lat":42.7862546,"lon":-8.6480263},{"id":"osm-way-920780197","stageId":"oporrino-redondela","type":"church","name":"Ermida de Santa Marta","lat":42.1881547,"lon":-8.61153},{"id":"osm-way-1065336417","stageId":"pontevedra-caldas","type":"church","name":"Capela de San Caetano","lat":42.4681276,"lon":-8.6480815},{"id":"osm-way-1083764352","stageId":"caldas-padron","type":"church","name":"Igrexa de San Miguel de Valga","lat":42.6946517,"lon":-8.6385275},{"id":"osm-way-1126503829","stageId":"padron-santiago","type":"church","name":"Capela de San Martiño de Rúa de Francos","lat":42.8143523,"lon":-8.6205028},{"id":"osm-way-1154550106","stageId":"pontevedra-caldas","type":"church","name":"Igrexa de San Mamede da Portela","lat":42.5125579,"lon":-8.6479072},{"id":"osm-way-1156609560","stageId":"pontevedra-caldas","type":"church","name":"Capela de San Amaro","lat":42.5046874,"lon":-8.6497014},{"id":"osm-way-1203313083","stageId":"padron-santiago","type":"church","name":"Capela do Santo Cristo da Cruz","lat":42.7619977,"lon":-8.6512676},{"id":"osm-way-1219298721","stageId":"redondela-pontevedra","type":"albergue","name":"Albergue Santiago Apostol de Redondela","lat":42.2834222,"lon":-8.607034},{"id":"osm-way-1222206818","stageId":"redondela-pontevedra","type":"albergue","name":"Albergue A Casa da Herba","lat":42.2828289,"lon":-8.6080945},{"id":"osm-way-1226218982","stageId":"caldas-padron","type":"church","name":"Capela da Virxe da Saúde de Casal de Eirigo","lat":42.6688874,"lon":-8.630449},{"id":"osm-way-1240225183","stageId":"padron-santiago","type":"church","name":"Igrexa de San Xosé","lat":42.7390268,"lon":-8.6635801},{"id":"osm-way-1349819375","stageId":"redondela-pontevedra","type":"church","name":"Capela de Santo Amaro de Cacheiro","lat":42.3592446,"lon":-8.6188519},{"id":"osm-way-1383235579","stageId":"pontevedra-caldas","type":"church","name":"Capela das Ánimas de Pontevedra","lat":42.4323253,"lon":-8.6447745},{"id":"osm-way-1415171497","stageId":"padron-santiago","type":"albergue","name":"Parada de Francos","lat":42.8157008,"lon":-8.6220328},{"id":"curated-casa-fidel","stageId":"redondela-pontevedra","type":"recommended","name":"Casa Fidel O Pulpeiro","lat":42.4337624,"lon":-8.6457529,"notes":"Contemporary Galician cuisine in Pontevedra's historic center."},{"id":"curated-la-estafeta","stageId":"redondela-pontevedra","type":"recommended","name":"La Estafeta Taperia","lat":42.4340437,"lon":-8.6450228,"notes":"Right on the Camino near the Ponte do Burgo bridge into Pontevedra."},{"id":"curated-pulperia-rial","stageId":"padron-santiago","type":"recommended","name":"Pulpería Rial","lat":42.7375644,"lon":-8.6611453,"notes":"In Padrón. Traditional Galician octopus with corn bread and wine."}]